[{"screen_name": "BuanaFrank3", "text": ": What actual value Artificial intelligence (AI), machine learning (ML), and the Internet of Things (IoT) can bring to your\u2026", "location": "Manchester, England", "lang": "en", "retweet_count": 510, "latitude": 53.4791301, "longitude": -2.2441009}, {"screen_name": "BuanaFrank3", "text": ": Researchers at MIT and Amazon Study Pervasive Label Errors in Test Sets that Destabilize Machine Learning Benchmarks - Ma\u2026", "location": "Manchester, England", "lang": "en", "retweet_count": 433, "latitude": 53.4791301, "longitude": -2.2441009}, {"screen_name": "BuanaFrank3", "text": ": XAPP AI Achieves AWS Machine Learning Competency Status in Applied AI - PR Web Read more here:", "location": "Manchester, England", "lang": "en", "retweet_count": 571, "latitude": 53.4791301, "longitude": -2.2441009}, {"screen_name": "BuanaFrank3", "text": ": Towards a pragmatist dealing with algorithmic bias in medical machine learning - DocWire News Read more here:", "location": "Manchester, England", "lang": "en", "retweet_count": 593, "latitude": 53.4791301, "longitude": -2.2441009}, {"screen_name": "DecisionsSmart", "text": "Data Science Vs. Machine Learning: What's The Difference? via", "location": "New York, NY", "lang": "en", "retweet_count": 0, "latitude": 40.7306458, "longitude": -73.9866136}, {"screen_name": "BuanaFrank3", "text": ": Domo Achieves AWS Machine Learning Competency Status in Applied AI - Yahoo Finance Read more here:", "location": "Manchester, England", "lang": "en", "retweet_count": 605, "latitude": 53.4791301, "longitude": -2.2441009}, {"screen_name": "BuanaFrank3", "text": ": ElectrifAi Achieves AWS Machine Learning Competency Status in Applied AI - PRNewswire Read more here:", "location": "Manchester, England", "lang": "en", "retweet_count": 524, "latitude": 53.4791301, "longitude": -2.2441009}, {"screen_name": "BuanaFrank3", "text": ": How blockchain and machine learning can deliver the promise of omnichannel marketing - EurekAlert Read more here: https:\u2026", "location": "Manchester, England", "lang": "en", "retweet_count": 457, "latitude": 53.4791301, "longitude": -2.2441009}, {"screen_name": "Samu3lR0y", "text": ": Dalhousie researchers use machine learning to track COVID-related emotions on social media - SaltWire Network Read more\u2026", "location": "Hillingdon, London", "lang": "en", "retweet_count": 554, "latitude": 51.5425193, "longitude": -0.448334947414423}, {"screen_name": "KristiAlvarad0", "text": ": Machine learning shows potential to enhance quantum information transfer - Science Daily Read more here:", "location": "Manchester, England", "lang": "en", "retweet_count": 478, "latitude": 53.4791301, "longitude": -2.2441009}, {"screen_name": "KristiAlvarad0", "text": ": Financial Regulators Request Feedback on AI and Machine Learning - Lelogy Read more here: \u2026", "location": "Manchester, England", "lang": "en", "retweet_count": 397, "latitude": 53.4791301, "longitude": -2.2441009}, {"screen_name": "KristiAlvarad0", "text": ": New machine learning algorithm ranks drugs based on efficacy in reducing cancer cell growth - Re\u2026", "location": "Manchester, England", "lang": "en", "retweet_count": 404, "latitude": 53.4791301, "longitude": -2.2441009}, {"screen_name": "bexxmodd", "text": ": Don't Miss this amazing event on this Saturday with our great speakers and Celina Lee. Registration li\u2026", "location": "Maryland, USA", "lang": "en", "retweet_count": 6, "latitude": 39.5162234, "longitude": -76.9382069}, {"screen_name": "SambSokhar", "text": ": Don't Miss this amazing event on this Saturday with our great speakers and Celina Lee. Registration li\u2026", "location": "Senegal", "lang": "en", "retweet_count": 6, "latitude": 14.4750607, "longitude": -14.4529612}, {"screen_name": "connectedmed", "text": "platform turns data into insights.", "location": "Pittsburgh, PA, USA", "lang": "en", "retweet_count": 0, "latitude": 40.4416941, "longitude": -79.9900861}, {"screen_name": "sprint_code", "text": ": Turn your Photos into Cartoons/Anime Using Python and machine learning algorithms \u2026", "location": "India", "lang": "en", "retweet_count": 31, "latitude": 22.3511148, "longitude": 78.6677428}, {"screen_name": "KristiAlvarad0", "text": ": Machine learning models for diagnosing COVID-19 are not yet suitable for clinical use: study - Tech lore Read more her\u2026", "location": "Manchester, England", "lang": "en", "retweet_count": 635, "latitude": 53.4791301, "longitude": -2.2441009}, {"screen_name": "KristiAlvarad0", "text": ": Machine-learning helps discover rare \u2018quadruply imaged quasars\u2019 - West Hawaii Today Read more here:", "location": "Manchester, England", "lang": "en", "retweet_count": 172, "latitude": 53.4791301, "longitude": -2.2441009}, {"screen_name": "KristiAlvarad0", "text": ": Increasing the Accessibility of Machine Learning at the Edge - Industry Articles - All About Circuits Read more here: ht\u2026", "location": "Manchester, England", "lang": "en", "retweet_count": 421, "latitude": 53.4791301, "longitude": -2.2441009}, {"screen_name": "KristiAlvarad0", "text": ": Talwalkar Earns NSF Career Award - Machine Learning - CMU - Carnegie Mellon University - Machine Learning Department, Car\u2026", "location": "Manchester, England", "lang": "en", "retweet_count": 333, "latitude": 53.4791301, "longitude": -2.2441009}, {"screen_name": "developer_RTbot", "text": ": Artificial Intelligence and Machine Learning Drive Advancements in Banking Technology - Computerworld Read more here:\u2026", "location": "Twitter", "lang": "en", "retweet_count": 866, "latitude": 37.7767817, "longitude": -122.4167923}, {"screen_name": "KristiAlvarad0", "text": ": Integrates ESG Data into Machine Learning Platform Boosted Insights - Business Wire Read more he\u2026", "location": "Manchester, England", "lang": "en", "retweet_count": 306, "latitude": 53.4791301, "longitude": -2.2441009}, {"screen_name": "KristiAlvarad0", "text": ": Artificial Intelligence and Machine Learning Drive Advancements in Banking Technology - Computerworld Read more here:\u2026", "location": "Manchester, England", "lang": "en", "retweet_count": 866, "latitude": 53.4791301, "longitude": -2.2441009}, {"screen_name": "KristiAlvarad0", "text": ": Eerts at Enterprise Knowledge break down knowledge graphs and machine learning - KMWorld Magazine Read more here: http\u2026", "location": "Manchester, England", "lang": "en", "retweet_count": 427, "latitude": 53.4791301, "longitude": -2.2441009}, {"screen_name": "KristiAlvarad0", "text": ": Machine Learning Model Predicts Innovation's Brilacidin Highly Effective Against COVID-19 - BioSpace Read more here: htt\u2026", "location": "Manchester, England", "lang": "en", "retweet_count": 617, "latitude": 53.4791301, "longitude": -2.2441009}, {"screen_name": "KristiAlvarad0", "text": ": Elaining machine learning based diagnosis of COVID-19 from routine blood tests with decision trees and criteria graphs\u2026", "location": "Manchester, England", "lang": "en", "retweet_count": 207, "latitude": 53.4791301, "longitude": -2.2441009}, {"screen_name": "pietrovischia", "text": ": Our Scientific Coordinator has been interviewed by APPEC about our Collaboration and research plan! You can re\u2026", "location": "Bruselas, B\u00e9lgica", "lang": "en", "retweet_count": 1, "latitude": 50.8465573, "longitude": 4.351697}, {"screen_name": "dlhampton", "text": ": Machine learning, elained.", "location": "Greensboro, NC", "lang": "en", "retweet_count": 3, "latitude": 36.0726355, "longitude": -79.7919754}, {"screen_name": "ElleArmageddon", "text": ": Gang database impact and use policy has been revised by NYPD from its February draft. Of note, NYPD has retracted line\u2026", "location": "Oakland, CA", "lang": "en", "retweet_count": 4, "latitude": 43.0317491, "longitude": -80.3310713}, {"screen_name": "klunkySQL", "text": ": people have watched \"How To Get Started With Machine Learning.\" have rated it. Let's celebrate! \u2022 You can buy the cour\u2026", "location": "Lisbon, Portugal", "lang": "en", "retweet_count": 37, "latitude": 38.7077507, "longitude": -9.1365919}, {"screen_name": "SuzanneC0leman", "text": ": North America Deep Learning In Machine Vision Market In-Depth Profiling Of Key Players, Geographical Outlook, Industry Size\u2026", "location": "South East, England", "lang": "en", "retweet_count": 587, "latitude": 51.46426255, "longitude": -0.651714721140142}, {"screen_name": "connectedmed", "text": ": How will enable technologies that anticipate what the brain thinks:", "location": "Pittsburgh, PA, USA", "lang": "en", "retweet_count": 1, "latitude": 40.4416941, "longitude": -79.9900861}, {"screen_name": "bobehayes", "text": ": Please help the data science and machine learning community by providing feedback about your eerience in the field. \u2026", "location": "Seattle, WA", "lang": "en", "retweet_count": 1, "latitude": 47.6038321, "longitude": -122.3300624}, {"screen_name": "PyScaleLLC", "text": ": Turn your Photos into Cartoons/Anime Using Python and machine learning algorithms \u2026", "location": "Town 'n' Country, FL", "lang": "en", "retweet_count": 31, "latitude": 28.0105745, "longitude": -82.5773193}, {"screen_name": "PyScaleLLC", "text": ": How to make sure you really need ? \"Scope the problem first,\" says senior director of data intellig\u2026", "location": "Town 'n' Country, FL", "lang": "en", "retweet_count": 3, "latitude": 28.0105745, "longitude": -82.5773193}, {"screen_name": "PyScaleLLC", "text": ": Our pioneering eertise range from data accessing to reporting on big data using advanced machine learning modeling,\u2026", "location": "Town 'n' Country, FL", "lang": "en", "retweet_count": 3, "latitude": 28.0105745, "longitude": -82.5773193}, {"screen_name": "bexxmodd", "text": ": Things Your Artificial Intelligence Initiative Needs to Succeed \u2026", "location": "Maryland, USA", "lang": "en", "retweet_count": 2, "latitude": 39.5162234, "longitude": -76.9382069}, {"screen_name": "PyScaleLLC", "text": ": BrainChip Joins tinyML Summit for Ultra-Low Power Edge Machine Learning Technologies \u2026", "location": "Town 'n' Country, FL", "lang": "en", "retweet_count": 2, "latitude": 28.0105745, "longitude": -82.5773193}, {"screen_name": "newsyc150", "text": "My collection of machine learning paper notes ()", "location": "Silicon Valley, Calif.", "lang": "en", "retweet_count": 0, "latitude": 37.4429964, "longitude": -122.1545229}, {"screen_name": "ChasseCyber", "text": "Standard Machine Learning workflow.", "location": "Toronto", "lang": "en", "retweet_count": 0, "latitude": 43.653963, "longitude": -79.387207}, {"screen_name": "PyScaleLLC", "text": ": Things Your Artificial Intelligence Initiative Needs to Succeed \u2026", "location": "Town 'n' Country, FL", "lang": "en", "retweet_count": 2, "latitude": 28.0105745, "longitude": -82.5773193}, {"screen_name": "PyScaleLLC", "text": ": Vs. : What\u2019s The Difference? v/ HT \u2026", "location": "Town 'n' Country, FL", "lang": "en", "retweet_count": 3, "latitude": 28.0105745, "longitude": -82.5773193}, {"screen_name": "PyScaleLLC", "text": ": I just published Important Terms in Statistics- Machine Learning \u2026", "location": "Town 'n' Country, FL", "lang": "en", "retweet_count": 3, "latitude": 28.0105745, "longitude": -82.5773193}, {"screen_name": "PyScaleLLC", "text": ": I'm committed to learning Machine Learning", "location": "Town 'n' Country, FL", "lang": "en", "retweet_count": 2, "latitude": 28.0105745, "longitude": -82.5773193}, {"screen_name": "TaylorLevi6", "text": ": Vocal Biomarker Manufacturers to Rely on Artificial Intelligence and Machine Learning: - BioSpace\u2026", "location": "United States", "lang": "en", "retweet_count": 599, "latitude": 39.7837304, "longitude": -100.4458825}, {"screen_name": "TaylorLevi6", "text": ": machine learning embedded edge software platform Irida labs - Vision Systems Design Read more here:", "location": "United States", "lang": "en", "retweet_count": 445, "latitude": 39.7837304, "longitude": -100.4458825}, {"screen_name": "TaylorLevi6", "text": ": FSU researchers enhance quantum machine learning algorithms - Florida State News Read more here:", "location": "United States", "lang": "en", "retweet_count": 587, "latitude": 39.7837304, "longitude": -100.4458825}, {"screen_name": "MLOpsBot", "text": ": Happening tomorrow: Join us for a session at apply(), the machine learning data engineering conference. Registration is fr\u2026", "location": "Brasil", "lang": "en", "retweet_count": 1, "latitude": -10.3333333, "longitude": -53.2}, {"screen_name": "TaylorLevi6", "text": ": New machine learning model could remove bias from social network connections | Penn State University - Penn State News R\u2026", "location": "United States", "lang": "en", "retweet_count": 581, "latitude": 39.7837304, "longitude": -100.4458825}, {"screen_name": "TaylorLevi6", "text": ": AMPD Announces 'Machine Learning Cloud' Initiative Built Around AMD Instinct MI100 Accelerators - HPCwire Read more here\u2026", "location": "United States", "lang": "en", "retweet_count": 624, "latitude": 39.7837304, "longitude": -100.4458825}, {"screen_name": "Glombkat", "text": ": Coming up soon: a mooc to learn machine learning in Python with weeks, Hrs/\u2026", "location": "T\u00fcbingen, Deutschland", "lang": "en", "retweet_count": 207, "latitude": 48.5236164, "longitude": 9.0535531}, {"screen_name": "j_lutterodt", "text": "Machine Learning of culture", "location": "Comunidad de Madrid, Espa\u00f1a", "lang": "en", "retweet_count": 0, "latitude": 40.5248319, "longitude": -3.77156277545181}, {"screen_name": "JSaylorIII", "text": "What if you could use machine learning to predict how well your subject line will perform \u2013 even before sending? Marketers spend a lot of thought and time behind. Learn how from utilizes", "location": "Laguna Beach, CA", "lang": "en", "retweet_count": 0, "latitude": 53.4453765, "longitude": -113.402912433547}, {"screen_name": "sethaxen", "text": ": Looking forward to talented applicants from Africa for our ML in ed\u2026", "location": "San Francisco Bay Area, CA", "lang": "en", "retweet_count": 2, "latitude": 37.7884969, "longitude": -122.3558473}, {"screen_name": "CyrusRashtchian", "text": ": Join us April , pm CT! from UC Berkeley will present \u201cFacing an Adult Problem: New Data Sources for Fair Machi\u2026", "location": "San Diego", "lang": "en", "retweet_count": 0, "latitude": 32.7174209, "longitude": -117.1627714}, {"screen_name": "Samu3lR0y", "text": ": Top Machine Learning Companies Making a Difference in - Analytics Insight Read more here:", "location": "Hillingdon, London", "lang": "en", "retweet_count": 593, "latitude": 51.5425193, "longitude": -0.448334947414423}, {"screen_name": "dtwistednerd", "text": ": Meet Jessica Uwoghiren , one of our speakers for the International Girls in ICT Day. Jessica is a Data Scienti\u2026", "location": "Toronto, Ontario", "lang": "en", "retweet_count": 7, "latitude": 43.653963, "longitude": -79.387207}, {"screen_name": "MidKnightMike5", "text": ": Full global viewing numbers. Taking into account the data &amp; metrics from top TV ratings platforms, OTT &amp; App meas\u2026", "location": "Los Angeles, CA", "lang": "en", "retweet_count": 593, "latitude": 34.054935, "longitude": -118.244476}, {"screen_name": "sbjsbd", "text": "Amazon continues to push for more live sports rights, but and its machine learning is helping leagues and organizations around the world reinvent the way sports are watched, played and managed (). Free to read \u2935\ufe0f", "location": "Charlotte, NC", "lang": "en", "retweet_count": 0, "latitude": 35.2270869, "longitude": -80.8431268}, {"screen_name": "justincbagley", "text": ": Mackenzie joined the lab &lt;2 years ago B.A. in Fisheries and Wildlife. Today -- with her one field season in the middle of a gl\u2026", "location": "Jacksonville, AL", "lang": "en", "retweet_count": 2, "latitude": 33.8137163, "longitude": -85.7613476}, {"screen_name": "Joffreybvn", "text": ": Turn your Photos into Cartoons/Anime Using Python and machine learning algorithms \u2026", "location": "Belgium", "lang": "en", "retweet_count": 31, "latitude": 50.6407351, "longitude": 4.66696}, {"screen_name": "FabienBrodie", "text": ": What Does it Take to be a Machine Learning Engineer? A Willingness to Fail - ClearanceJobs Read more here:", "location": "London, England", "lang": "en", "retweet_count": 155, "latitude": 51.5073219, "longitude": -0.1276474}, {"screen_name": "kim_crawley", "text": ": Man, I\u2019m not even a millennial, but what even the fuck? Was this headline written by an algorithm created by feeding pur\u2026", "location": "Toronto, Ontario, Canada", "lang": "en", "retweet_count": 11, "latitude": 43.653963, "longitude": -79.387207}, {"screen_name": "Acertijo", "text": ": Developing and Deploying a Churn Prediction Model with Services | CSE Developer Blog", "location": "Asuncion, Paraguay", "lang": "en", "retweet_count": 5, "latitude": -25.2959916, "longitude": -57.6311196}, {"screen_name": "IoT_Technojeder", "text": ": Vs. : What\u2019s The Difference? v/ HT \u2026", "location": "India", "lang": "en", "retweet_count": 3, "latitude": 22.3511148, "longitude": 78.6677428}, {"screen_name": "FranckDeO", "text": ": Solving 'barren plateaus' is the key to quantum machine learning - Read more here:", "location": "Lyon / Paris / France ", "lang": "en", "retweet_count": 622, "latitude": 48.86443435, "longitude": 2.321660839308}, {"screen_name": "irisclever1", "text": "I joined the board of The Foundation of Best Practices in Machine Learning, which aims to champion ethical and responsible ML through free, open-source, best practices guidelines. We're looking for people to review the guidelines before launching. DM me if you are interested!", "location": "Chicago, IL", "lang": "en", "retweet_count": 0, "latitude": 41.8755546, "longitude": -87.6244212}, {"screen_name": "JamesFl3tcher", "text": ": Transforming customer eerience with AI and Machine Learning - Ericsson Read more here: \u2026", "location": "England, United Kingdom", "lang": "en", "retweet_count": 645, "latitude": 52.7954791, "longitude": -0.540240286617432}, {"screen_name": "IndhuChelliah", "text": "I just published Important Terms in Statistics- Machine Learning", "location": "Charlotte, North Carolina", "lang": "en", "retweet_count": 3, "latitude": 35.2270869, "longitude": -80.8431268}, {"screen_name": "JamesFl3tcher", "text": ": Streamlit nabs $35M Series B to eand machine learning platform - TechCrunch Read more here: \u2026", "location": "England, United Kingdom", "lang": "en", "retweet_count": 183, "latitude": 52.7954791, "longitude": -0.540240286617432}, {"screen_name": "payaicha15", "text": ": Don't Miss this amazing event on this Saturday with our great speakers and Celina Lee. Registration li\u2026", "location": "Senegal", "lang": "en", "retweet_count": 6, "latitude": 14.4750607, "longitude": -14.4529612}, {"screen_name": "FabienBrodie", "text": ": Artificial Intelligence and Machine Learning Drive Advancements in Banking Technology - Computerworld Read more here: ht\u2026", "location": "London, England", "lang": "en", "retweet_count": 648, "latitude": 51.5073219, "longitude": -0.1276474}, {"screen_name": "BlkHwk0ps", "text": ": Turn your Photos into Cartoons/Anime Using Python and machine learning algorithms \u2026", "location": "Canc\u00fan, Quintana Roo, M\u00e9xico", "lang": "en", "retweet_count": 31, "latitude": 21.161829, "longitude": -86.82505}, {"screen_name": "bexxmodd", "text": ": Turn your Photos into Cartoons/Anime Using Python and machine learning algorithms \u2026", "location": "Maryland, USA", "lang": "en", "retweet_count": 31, "latitude": 39.5162234, "longitude": -76.9382069}, {"screen_name": "DoksBaby", "text": ": Turn your Photos into Cartoons/Anime Using Python and machine learning algorithms \u2026", "location": "Tema Ghana \ud83c\uddec\ud83c\udded", "lang": "en", "retweet_count": 31, "latitude": 5.6596441, "longitude": -0.0096592}, {"screen_name": "JamesFl3tcher", "text": ": This Boston Based Startup is Applying Machine Learning-Anchored Computation to Enhance Drug Discovery and Development - M\u2026", "location": "England, United Kingdom", "lang": "en", "retweet_count": 577, "latitude": 52.7954791, "longitude": -0.540240286617432}]