[{"screen_name": "jiaersluvz", "text": ": Youngjae posted the photos on Weibo too! \u2026", "location": "Roma, Lazio", "lang": "en", "retweet_count": 1271, "latitude": 41.894802, "longitude": 12.4853384}, {"screen_name": "nakaqian", "text": ": | Atualiza\u00e7\u00e3o da conta oficial do no Weibo com o \"Weizennis apartir de de abril vamos correr juntos com o\u2026", "location": "rock \u2606", "lang": "pt", "retweet_count": 7, "latitude": 43.6733632, "longitude": -96.2574328}, {"screen_name": "ice__amour", "text": ": Youngjae posted the photos on Weibo too! \u2026", "location": "Indonesia", "lang": "en", "retweet_count": 1271, "latitude": -4.7993356, "longitude": 114.5632032}, {"screen_name": "nakaqian", "text": ": [] 4.21 - Atualiza\u00e7\u00e3o do Weibo da Nature Republic com Yuta e NCT cr SM_NCT \u2026", "location": "rock \u2606", "lang": "pt", "retweet_count": 3, "latitude": 43.6733632, "longitude": -96.2574328}, {"screen_name": "Jess_me_123", "text": ": The past days, gained K Instagram followers, K Weibo followers, K Spotify followers &amp; K Youtube\u2026", "location": "Brooklyn, NY", "lang": "en", "retweet_count": 68, "latitude": 40.6501038, "longitude": -73.9495823}, {"screen_name": "Kuromimiis", "text": ": wen ke xing robe costumes compilation art by \u5218\u5c0f\u9ea6\u540c\u5b66 credits weibo: \u5218\u5c0f\u9ea6\u540c\u5b66", "location": "the void", "lang": "zh", "retweet_count": 709, "latitude": 48.5914619, "longitude": 6.5912872}, {"screen_name": "453prh", "text": ": Do you know that you can post up to photos on Weibo? \ud83e\udd7a\ud83e\udd7a\ud83e\udd7a One day if you feel like dropping all your selfies you can do th\u2026", "location": "Cikarang, Indonesia", "lang": "en", "retweet_count": 47, "latitude": -6.2587148, "longitude": 107.145742}, {"screen_name": "youya_jung", "text": ": \u0e01\u0e25\u0e31\u0e27\u0e21\u0e32\u0e01\u0e17\u0e35\u0e48\u0e40\u0e19\u0e40\u0e19\u0e48\u0e40\u0e23\u0e34\u0e48\u0e21\u0e1e\u0e39\u0e14\u0e08\u0e35\u0e19\u0e01\u0e25\u0e32\u0e07\u0e04\u0e25\u0e48\u0e2d\u0e07 \u0e40\u0e14\u0e47\u0e01\u0e19\u0e49\u0e2d\u0e22\u0e19\u0e49\u0e32\u0e21\u0e37\u0e14\u0e17\u0e35\u0e48\u0e40\u0e1e\u0e34\u0e48\u0e07\u0e25\u0e07\u0e08\u0e32\u0e01\u0e40\u0e04\u0e23\u0e37\u0e48\u0e2d\u0e07\u0e01\u0e31\u0e07\u0e2b\u0e31\u0e19\u0e25\u0e21 \u0e40\u0e2b\u0e47\u0e19\u0e09\u0e31\u0e19\u0e41\u0e25\u0e49\u0e27\u0e1e\u0e39\u0e14\u0e27\u0e48\u0e32 \u0e40\u0e19\u0e40\u0e19\u0e48: \u0e09\u0e31\u0e19\u0e2d\u0e22\u0e32\u0e01\u0e2d\u0e32\u0e40\u0e08\u0e35\u0e22\u0e19\u2026", "location": "\u0e1b\u0e23\u0e30\u0e40\u0e17\u0e28\u0e44\u0e17\u0e22", "lang": "th", "retweet_count": 371, "latitude": 14.8971921, "longitude": 100.83273}, {"screen_name": "BDAYKONIC", "text": ": GENTE?! A hashtag do aespa no Weibo atingiu mais de milh\u00f5es de visualiza\u00e7\u00f5es, elas tem a segunda hashtag c\u2026", "location": "\u00a0\u00a0\u00a0\u00a0\u00a0\u00a0 \u00a0 \u8d64? \ud83c\udf44 \u2605 \u8d64! \u2740", "lang": "pt", "retweet_count": 20, "latitude": 35.1209954, "longitude": 137.0178138}, {"screen_name": "yetao_hu", "text": ": [ weibo ] yetao featuring us \ud83e\udd55\ud83e\udd55\ud83e\udd55", "location": "she!her", "lang": "tl", "retweet_count": 124, "latitude": 41.7862439, "longitude": 19.6608615}, {"screen_name": "aespagirlsbr", "text": ": GENTE?! A hashtag do aespa no Weibo atingiu mais de milh\u00f5es de visualiza\u00e7\u00f5es, elas tem a segunda hashtag c\u2026", "location": "Brasil", "lang": "pt", "retweet_count": 20, "latitude": -10.3333333, "longitude": -53.2}, {"screen_name": "328_jy", "text": ": The past days, gained K Instagram followers, K Weibo followers, K Spotify followers &amp; K Youtube\u2026", "location": "Los Angeles, CA", "lang": "en", "retweet_count": 68, "latitude": 34.054935, "longitude": -118.244476}, {"screen_name": "cutiestjbyj", "text": ": liuyu has reached million followers on weibo!", "location": "\u6797\u5728\u7bc4 \ud83c\udf34 \ud83c\uddf0\ud83c\uddf7\ud83c\udde8\ud83c\uddf3", "lang": "en", "retweet_count": 57, "latitude": 35.0288829, "longitude": 135.7151698}, {"screen_name": "uhoh_home", "text": ": YT: Source:", "location": "she", "lang": "da", "retweet_count": 9, "latitude": 29.8635777, "longitude": 118.4101129}, {"screen_name": "blissfulemmmm", "text": ": \u2014What kind of person do you consider me as? \u2014I see you as the one in my heart Cr Zh\u2026", "location": "California, USA", "lang": "en", "retweet_count": 36, "latitude": 36.7014631, "longitude": -118.7559974}, {"screen_name": "Nooks31", "text": ": Youngjae posted the photos on Weibo too! \u2026", "location": "\u0e01\u0e23\u0e38\u0e07\u0e40\u0e17\u0e1e\u0e21\u0e2b\u0e32\u0e19\u0e04\u0e23, \u0e1b\u0e23\u0e30\u0e40\u0e17\u0e28\u0e44\u0e17\u0e22", "lang": "en", "retweet_count": 1271, "latitude": 13.7538929, "longitude": 100.8160803}, {"screen_name": "yoo_k_haney", "text": ": \u0e1e\u0e23\u0e38\u0e48\u0e07\u0e19\u0e35\u0e49\u0e40\u0e27\u0e25\u0e32 :10 - :50 \u0e19. (\u0e40\u0e27\u0e25\u0e32\u0e44\u0e17\u0e22) \u0e25\u0e30\u0e04\u0e23\u0e40\u0e27\u0e17\u0e35 \"Dream like a dream\" \u0e21\u0e35\u0e44\u0e25\u0e1f\u0e4c\u0e43\u0e2b\u0e49\u0e14\u0e39\u0e1b\u0e23\u0e30\u0e21\u0e32\u0e13 \u0e19\u0e32\u0e17\u0e35 \u0e1c\u0e48\u0e32\u0e19\u0e17\u0e32\u0e07 Poly Ticketing Weibo\u2026", "location": "microchip", "lang": "und", "retweet_count": 369, "latitude": 49.02135035, "longitude": 8.43806484819115}, {"screen_name": "cihoonssii", "text": ": [WEIBO] Back To Field weibo update -", "location": "cons.", "lang": "en", "retweet_count": 46, "latitude": 46.649065, "longitude": 9.0904974}, {"screen_name": "diazairiyana", "text": ": so sweet WINWIN looking out of the car and waving to fans", "location": "San Diego, CA", "lang": "en", "retweet_count": 211, "latitude": 32.7174209, "longitude": -117.1627714}, {"screen_name": "ilovingdaniel", "text": ": [] \uac15\ub2e4\ub2c8\uc5d8(KANGDANIEL) - Antidote M/V Commentary \u25b6 \u25b6 \u25b6", "location": "\ub300\ud55c\ubbfc\uad6d \uc11c\uc6b8", "lang": "ko", "retweet_count": 76, "latitude": 37.5666791, "longitude": 126.9782914}, {"screen_name": "KeiCM_93", "text": ": The Sina Weibo Power Celebrity list (HK, Macau, Taiwan) this week has been released! Top most influential celebrities \u2026", "location": "Costa Rica", "lang": "en", "retweet_count": 139, "latitude": 10.2735633, "longitude": -84.0739102}, {"screen_name": "JasLin520", "text": ": The past days, gained K Instagram followers, K Weibo followers, K Spotify followers &amp; K Youtube\u2026", "location": "New York, NY", "lang": "en", "retweet_count": 68, "latitude": 40.7306458, "longitude": -73.9866136}, {"screen_name": "jwangspapillon", "text": ": Sina Weibo Power Celebrity List (HK, Macau, Taiwan) Top most influential celebrities (+1) \u2026", "location": "South Dublin, Ireland", "lang": "en", "retweet_count": 88, "latitude": 53.27367045, "longitude": -6.40734708789517}, {"screen_name": "xiiaolvv", "text": ": winwin's precious smile cr.", "location": "floor", "lang": "en", "retweet_count": 429, "latitude": -28.7394155, "longitude": 24.7454908}, {"screen_name": "HappyEXO_L", "text": ": years ago today chucksuk's Weibo Updated With and", "location": "L_1485 ", "lang": "en", "retweet_count": 3, "latitude": 48.6156215, "longitude": 14.5035744}]